[
  {
    "id": "amelie",
    "name": "Amelie",
    "neighborhood": "nob-hill",
    "activities": [
      "wine"
    ],
    "experiences": [
      "classic"
    ],
    "address": "1754 Polk St",
    "lat": 37.7931005,
    "lng": -122.421082
  },
  {
    "id": "bodega",
    "name": "Bodega",
    "neighborhood": "north-beach",
    "activities": [
      "wine"
    ],
    "experiences": [
      "classic"
    ],
    "address": "700 Columbus Ave",
    "lat": 37.8012883,
    "lng": -122.411387
  },
  {
    "id": "beretta",
    "name": "Beretta",
    "neighborhood": "fillmore",
    "activities": [
      "wine"
    ],
    "experiences": [
      "classic"
    ],
    "note": "NoPa / Divisadero",
    "address": "661 Divisadero St",
    "lat": 37.7757565,
    "lng": -122.4383156
  },
  {
    "id": "golden-sardine",
    "name": "Golden Sardine",
    "neighborhood": "north-beach",
    "activities": [
      "wine"
    ],
    "experiences": [
      "classic"
    ],
    "address": "362 Columbus Ave"
  },
  {
    "id": "qua-o-la",
    "name": "Qua o La",
    "neighborhood": "north-beach",
    "activities": [
      "wine"
    ],
    "experiences": [
      "discover"
    ],
    "note": "new wine bar",
    "address": "1318 Grant Ave"
  },
  {
    "id": "waystone",
    "name": "Waystone",
    "neighborhood": "north-beach",
    "activities": [
      "wine"
    ],
    "experiences": [
      "classic"
    ],
    "address": "1609 Powell St"
  },
  {
    "id": "key-klub",
    "name": "Key Klub",
    "neighborhood": "nob-hill",
    "activities": [
      "wine"
    ],
    "experiences": [
      "classic"
    ],
    "address": "850 Bush St",
    "lat": 37.7899577,
    "lng": -122.4113323
  },
  {
    "id": "bar-crudo",
    "name": "Bar Crudo",
    "neighborhood": "fillmore",
    "activities": [
      "wine"
    ],
    "experiences": [
      "classic"
    ],
    "address": "655 Divisadero St",
    "lat": 37.7757093,
    "lng": -122.4381297
  },
  {
    "id": "fools-errand",
    "name": "Fools Errand",
    "neighborhood": "fillmore",
    "activities": [
      "wine",
      "beer"
    ],
    "experiences": [
      "classic"
    ],
    "address": "639A Divisadero St"
  },
  {
    "id": "murphy-s-pub",
    "name": "Murphy's Pub",
    "neighborhood": "fidi",
    "activities": [
      "beer"
    ],
    "experiences": [
      "classic"
    ],
    "address": "217 Kearny St",
    "lat": 37.7900928,
    "lng": -122.4040639
  },
  {
    "id": "aces",
    "name": "Aces",
    "neighborhood": "nob-hill",
    "activities": [
      "beer"
    ],
    "experiences": [
      "classic"
    ],
    "address": "998 Sutter St",
    "lat": 37.7883091,
    "lng": -122.416671
  },
  {
    "id": "standard-deviant",
    "name": "Standard Deviant",
    "neighborhood": "mission",
    "activities": [
      "beer"
    ],
    "experiences": [
      "classic"
    ],
    "address": "280 14th St",
    "lat": 37.7684711,
    "lng": -122.4194756
  },
  {
    "id": "el-chato",
    "name": "El Chato",
    "neighborhood": "mission",
    "activities": [
      "cocktails"
    ],
    "experiences": [
      "classic"
    ],
    "address": "2301 Bryant St",
    "lat": 37.7575118,
    "lng": -122.4094386
  },
  {
    "id": "peacekeeper",
    "name": "Peacekeeper",
    "neighborhood": "nob-hill",
    "activities": [
      "cocktails"
    ],
    "experiences": [
      "classic"
    ],
    "address": "925 Bush St",
    "lat": 37.7895102,
    "lng": -122.4125358
  },
  {
    "id": "harper-rhye",
    "name": "Harper & Rhye",
    "neighborhood": "nob-hill",
    "activities": [
      "cocktails"
    ],
    "experiences": [
      "classic"
    ],
    "address": "1695 Polk St"
  },
  {
    "id": "bar-darling",
    "name": "Bar Darling",
    "neighborhood": "marina",
    "activities": [
      "cocktails"
    ],
    "experiences": [
      "classic"
    ],
    "address": "2263 Chestnut St"
  },
  {
    "id": "april-jean",
    "name": "April Jean",
    "neighborhood": "north-beach",
    "activities": [
      "cocktails"
    ],
    "experiences": [
      "classic"
    ],
    "address": "1371 Grant Ave"
  },
  {
    "id": "left-door",
    "name": "Left Door",
    "neighborhood": "marina",
    "activities": [
      "cocktails"
    ],
    "experiences": [
      "speakeasy",
      "elevated"
    ],
    "note": "elevated chic",
    "address": "1905 Union St",
    "lat": 37.7975942,
    "lng": -122.4307445
  },
  {
    "id": "vesuvio-s",
    "name": "Vesuvio's",
    "neighborhood": "north-beach",
    "activities": [
      "cocktails"
    ],
    "experiences": [
      "classic"
    ],
    "address": "255 Columbus Ave",
    "lat": 37.7974945,
    "lng": -122.406449
  },
  {
    "id": "pellegrini-s",
    "name": "Pellegrini's",
    "neighborhood": "north-beach",
    "activities": [
      "cocktails"
    ],
    "experiences": [
      "classic"
    ],
    "address": "659 Columbus Ave",
    "lat": 37.8008648,
    "lng": -122.4113096
  },
  {
    "id": "off-the-record",
    "name": "Off the Record",
    "neighborhood": "nob-hill",
    "activities": [
      "cocktails"
    ],
    "experiences": [
      "classic"
    ],
    "address": "501 Geary St"
  },
  {
    "id": "bar-morella",
    "name": "Bar Morella",
    "neighborhood": "marina",
    "activities": [
      "cocktails"
    ],
    "experiences": [
      "classic"
    ],
    "address": "2001 Chestnut St",
    "lat": 37.8006714,
    "lng": -122.4364807
  },
  {
    "id": "persona",
    "name": "Persona",
    "neighborhood": "nob-hill",
    "activities": [
      "cocktails"
    ],
    "experiences": [
      "classic"
    ],
    "address": "685 Sutter St",
    "lat": 37.7887317,
    "lng": -122.4115659
  },
  {
    "id": "hi-lo",
    "name": "Hi Lo",
    "neighborhood": "nob-hill",
    "activities": [
      "cocktails"
    ],
    "experiences": [
      "classic"
    ],
    "address": "1940 Polk St"
  },
  {
    "id": "busstop",
    "name": "Busstop",
    "neighborhood": "marina",
    "activities": [
      "cocktails"
    ],
    "experiences": [
      "vibes"
    ],
    "address": "1901 Union St"
  },
  {
    "id": "boardroom",
    "name": "Boardroom",
    "neighborhood": "north-beach",
    "activities": [
      "cocktails"
    ],
    "experiences": [
      "vibes"
    ],
    "address": "1600 Powell St",
    "lat": 37.7994533,
    "lng": -122.4105373
  },
  {
    "id": "northstar",
    "name": "Northstar",
    "neighborhood": "north-beach",
    "activities": [
      "cocktails"
    ],
    "experiences": [
      "vibes"
    ],
    "address": "1560 Powell St",
    "lat": 37.7992193,
    "lng": -122.4104205
  },
  {
    "id": "brazen-head",
    "name": "Brazen Head",
    "neighborhood": "marina",
    "activities": [
      "cocktails"
    ],
    "experiences": [
      "vibes"
    ],
    "address": "3166 Buchanan St",
    "lat": 37.7992905,
    "lng": -122.4324396
  },
  {
    "id": "bar-crem",
    "name": "Bar Crem",
    "neighborhood": "marina",
    "activities": [
      "cocktails"
    ],
    "experiences": [
      "vibes"
    ],
    "address": "3131 Fillmore St"
  },
  {
    "id": "the-page",
    "name": "The Page",
    "neighborhood": "haight",
    "activities": [
      "cocktails"
    ],
    "experiences": [
      "vibes"
    ],
    "address": "298 Divisadero St",
    "lat": 37.7721197,
    "lng": -122.4370577
  },
  {
    "id": "the-speakeasy",
    "name": "The Speakeasy",
    "neighborhood": "north-beach",
    "activities": [
      "cocktails"
    ],
    "experiences": [
      "speakeasy"
    ],
    "note": "1920's theme"
  },
  {
    "id": "back-to-back",
    "name": "Back to Back",
    "neighborhood": "nob-hill",
    "activities": [
      "eat"
    ],
    "experiences": [
      "classic"
    ],
    "address": "1257 Taylor St"
  },
  {
    "id": "lolita-s",
    "name": "Lolita's",
    "neighborhood": "mission",
    "activities": [
      "eat"
    ],
    "experiences": [
      "classic"
    ],
    "address": "2518 Mission St"
  },
  {
    "id": "state-bird-provisions",
    "name": "State Bird Provisions",
    "neighborhood": "fillmore",
    "activities": [
      "eat"
    ],
    "experiences": [
      "classic"
    ],
    "address": "1529 Fillmore St",
    "lat": 37.7837055,
    "lng": -122.4329482
  },
  {
    "id": "fable",
    "name": "Fable",
    "neighborhood": "castro",
    "activities": [
      "eat"
    ],
    "experiences": [
      "classic"
    ],
    "address": "3985 17th St"
  },
  {
    "id": "horsefeather",
    "name": "Horsefeather",
    "neighborhood": "fillmore",
    "activities": [
      "eat"
    ],
    "experiences": [
      "classic"
    ],
    "address": "528 Divisadero St"
  },
  {
    "id": "liholiho",
    "name": "Liholiho",
    "neighborhood": "nob-hill",
    "activities": [
      "eat"
    ],
    "experiences": [
      "classic"
    ],
    "address": "871 Sutter St",
    "lat": 37.7882003,
    "lng": -122.4146082
  },
  {
    "id": "nopa",
    "name": "Nopa",
    "neighborhood": "fillmore",
    "activities": [
      "eat"
    ],
    "experiences": [
      "classic"
    ],
    "address": "560 Divisadero St",
    "lat": 37.7749054,
    "lng": -122.4375084
  },
  {
    "id": "house-of-prime-rib",
    "name": "House of Prime Rib",
    "neighborhood": "nob-hill",
    "activities": [
      "eat"
    ],
    "experiences": [
      "classic"
    ],
    "address": "1906 Van Ness Ave",
    "lat": 37.7933913,
    "lng": -122.4225436
  },
  {
    "id": "boulevard",
    "name": "Boulevard",
    "neighborhood": "fidi",
    "activities": [
      "eat"
    ],
    "experiences": [
      "classic"
    ],
    "address": "1 Mission St",
    "lat": 37.7932361,
    "lng": -122.3928913
  },
  {
    "id": "hookfish",
    "name": "Hookfish",
    "neighborhood": "richmond",
    "activities": [
      "eat"
    ],
    "experiences": [
      "classic"
    ],
    "address": "4542 Irving St"
  },
  {
    "id": "kokkari",
    "name": "Kokkari",
    "neighborhood": "fidi",
    "activities": [
      "eat"
    ],
    "experiences": [
      "classic"
    ],
    "address": "200 Jackson St",
    "lat": 37.7969945,
    "lng": -122.3996909
  },
  {
    "id": "cotogna",
    "name": "Cotogna",
    "neighborhood": "fidi",
    "activities": [
      "eat"
    ],
    "experiences": [
      "classic"
    ],
    "address": "490 Pacific Ave",
    "lat": 37.7974414,
    "lng": -122.4035292
  },
  {
    "id": "tony-s",
    "name": "Tony's",
    "neighborhood": "north-beach",
    "activities": [
      "eat"
    ],
    "experiences": [
      "classic"
    ],
    "address": "1570 Stockton St",
    "lat": 37.8003332,
    "lng": -122.4090513
  },
  {
    "id": "flour-water",
    "name": "Flour & Water",
    "neighborhood": "mission",
    "activities": [
      "eat"
    ],
    "experiences": [
      "classic"
    ],
    "address": "2401 Harrison St",
    "lat": 37.7589266,
    "lng": -122.41238
  },
  {
    "id": "out-of-sight-2",
    "name": "Out of Sight 2",
    "neighborhood": "chinatown",
    "activities": [
      "eat"
    ],
    "experiences": [
      "classic"
    ],
    "address": "643 Clay St"
  },
  {
    "id": "china-live",
    "name": "China Live",
    "neighborhood": "chinatown",
    "activities": [
      "eat"
    ],
    "experiences": [
      "classic"
    ],
    "address": "644 Broadway",
    "lat": 37.7979135,
    "lng": -122.407877
  },
  {
    "id": "crissy-field-marina-green",
    "name": "Crissy Field / Marina Green",
    "neighborhood": "marina",
    "activities": [
      "outdoors"
    ],
    "experiences": [
      "scenic"
    ],
    "address": "Crissy Field, Mason St"
  },
  {
    "id": "golden-gate-park",
    "name": "Golden Gate Park",
    "neighborhood": "richmond",
    "activities": [
      "outdoors"
    ],
    "experiences": [
      "scenic"
    ],
    "address": "Golden Gate Park, JFK Dr"
  },
  {
    "id": "panhandle",
    "name": "Panhandle",
    "neighborhood": "haight",
    "activities": [
      "outdoors"
    ],
    "experiences": [
      "scenic"
    ],
    "address": "The Panhandle, Oak St & Baker St"
  },
  {
    "id": "embarcadero",
    "name": "Embarcadero",
    "neighborhood": "fidi",
    "activities": [
      "outdoors"
    ],
    "experiences": [
      "scenic"
    ],
    "address": "The Embarcadero",
    "lat": 37.7963746,
    "lng": -122.3951692
  },
  {
    "id": "bernal-heights-park",
    "name": "Bernal Heights Park",
    "neighborhood": "mission",
    "activities": [
      "outdoors"
    ],
    "experiences": [
      "scenic"
    ],
    "address": "Bernal Heights Blvd"
  },
  {
    "id": "corona-heights-park",
    "name": "Corona Heights Park",
    "neighborhood": "castro",
    "activities": [
      "outdoors"
    ],
    "experiences": [
      "scenic"
    ],
    "address": "Roosevelt Way & Museum Way"
  },
  {
    "id": "salesforce-tower-park",
    "name": "Salesforce Tower Park",
    "neighborhood": "fidi",
    "activities": [
      "outdoors"
    ],
    "experiences": [
      "scenic"
    ],
    "address": "Salesforce Park, 425 Mission St"
  },
  {
    "id": "johnson-s-beach",
    "name": "Johnson's Beach",
    "neighborhood": "outside",
    "activities": [
      "outdoors",
      "explore"
    ],
    "experiences": [
      "scenic",
      "discover"
    ],
    "note": "Russian River",
    "address": "16215 First St, Guerneville, CA"
  },
  {
    "id": "jack-s",
    "name": "Jack's",
    "neighborhood": "mission",
    "activities": [
      "cocktails",
      "explore"
    ],
    "experiences": [
      "discover"
    ],
    "note": "bar",
    "address": "2545 24th St"
  },
  {
    "id": "hang-ah",
    "name": "Hang Ah",
    "neighborhood": "chinatown",
    "activities": [
      "eat",
      "explore"
    ],
    "experiences": [
      "discover"
    ],
    "note": "dim sum",
    "address": "1 Pagoda Pl"
  },
  {
    "id": "pagan-idol",
    "name": "Pagan Idol",
    "neighborhood": "fidi",
    "activities": [
      "cocktails",
      "explore"
    ],
    "experiences": [
      "discover"
    ],
    "address": "375 Bush St",
    "lat": 37.7907035,
    "lng": -122.403638
  },
  {
    "id": "tonga",
    "name": "Tonga",
    "neighborhood": "nob-hill",
    "activities": [
      "cocktails",
      "explore"
    ],
    "experiences": [
      "discover"
    ],
    "address": "950 Mason St",
    "lat": 37.792141,
    "lng": -122.410008
  },
  {
    "id": "rotunda",
    "name": "Rotunda",
    "neighborhood": "nob-hill",
    "activities": [
      "eat",
      "explore"
    ],
    "experiences": [
      "discover"
    ],
    "address": "150 Stockton St",
    "lat": 37.787379,
    "lng": -122.4062685
  },
  {
    "id": "andytown",
    "name": "Andytown Coffee Roasters",
    "neighborhood": "richmond",
    "activities": [
      "cafe"
    ],
    "experiences": [
      "classic"
    ],
    "note": "Snowy Plover + ocean air",
    "address": "3655 Lawton St, San Francisco, CA 94122",
    "lat": 37.7567163,
    "lng": -122.502318
  },
  {
    "id": "ritual-coffee",
    "name": "Ritual Coffee Roasters",
    "neighborhood": "mission",
    "activities": [
      "cafe"
    ],
    "experiences": [
      "classic"
    ],
    "address": "1026 Valencia St, San Francisco, CA 94110",
    "lat": 37.7564325,
    "lng": -122.4212469
  },
  {
    "id": "sightglass",
    "name": "Sightglass Coffee",
    "neighborhood": "fidi",
    "activities": [
      "cafe"
    ],
    "experiences": [
      "elevated"
    ],
    "note": "SoMa flagship",
    "address": "270 7th St, San Francisco, CA 94103",
    "lat": 37.7770339,
    "lng": -122.4084399
  },
  {
    "id": "home-coffee",
    "name": "Home Coffee Roasters",
    "neighborhood": "nob-hill",
    "activities": [
      "cafe"
    ],
    "experiences": [
      "vibes"
    ],
    "address": "2018 Polk St, San Francisco, CA 94109"
  },
  {
    "id": "coffee-movement",
    "name": "Coffee Movement",
    "neighborhood": "chinatown",
    "activities": [
      "cafe"
    ],
    "experiences": [
      "discover"
    ],
    "address": "1030 Washington St, San Francisco, CA 94108",
    "lat": 37.7947543,
    "lng": -122.4103018
  },
  {
    "id": "devils-teeth",
    "name": "Devil's Teeth",
    "neighborhood": "richmond",
    "activities": [
      "cafe"
    ],
    "experiences": [
      "classic"
    ],
    "note": "Outer Sunset original — biscuits",
    "address": "3876 Noriega St, San Francisco, CA 94122",
    "lat": 37.7531346,
    "lng": -122.5050341
  },
  {
    "id": "juniper-cafe",
    "name": "Juniper Cafe",
    "neighborhood": "nob-hill",
    "activities": [
      "cafe"
    ],
    "experiences": [
      "elevated"
    ],
    "note": "from the Saint Frank folks",
    "address": "1401 Polk St, San Francisco, CA 94109",
    "lat": 37.7897377,
    "lng": -122.420689
  },
  {
    "id": "beacon-coffee",
    "name": "Beacon Coffee",
    "neighborhood": "north-beach",
    "activities": [
      "cafe"
    ],
    "experiences": [
      "classic"
    ],
    "address": "805 Columbus Ave, San Francisco, CA 94133"
  },
  {
    "id": "as-quoted",
    "name": "As Quoted",
    "neighborhood": "richmond",
    "activities": [
      "cafe",
      "eat"
    ],
    "experiences": [
      "elevated"
    ],
    "note": "Presidio Heights",
    "address": "3613 Sacramento St, San Francisco, CA 94118",
    "lat": 37.7874179,
    "lng": -122.4522343
  },
  {
    "id": "reveille-coffee",
    "name": "Réveille Coffee Co.",
    "neighborhood": "north-beach",
    "activities": [
      "cafe"
    ],
    "experiences": [
      "classic"
    ],
    "address": "200 Columbus Ave, San Francisco, CA 94133",
    "lat": 37.7972459,
    "lng": -122.4055336
  },
  {
    "id": "motoring-coffee",
    "name": "Motoring Coffee",
    "neighborhood": "marina",
    "activities": [
      "cafe"
    ],
    "experiences": [
      "discover"
    ],
    "note": "Cow Hollow — cars + coffee",
    "address": "1525 Union St, San Francisco, CA 94123"
  },
  {
    "id": "saint-frank-coffee",
    "name": "Saint Frank Coffee",
    "neighborhood": "nob-hill",
    "activities": [
      "cafe"
    ],
    "experiences": [
      "elevated"
    ],
    "note": "Russian Hill / Polk",
    "address": "2340 Polk St, San Francisco, CA 94109"
  },
  {
    "id": "another-cafe",
    "name": "Another Cafe",
    "neighborhood": "nob-hill",
    "activities": [
      "cafe"
    ],
    "experiences": [
      "vibes"
    ],
    "address": "1191 Pine St, San Francisco, CA 94109",
    "lat": 37.7901681,
    "lng": -122.4154112
  },
  {
    "id": "beanstalk",
    "name": "Beanstalk",
    "neighborhood": "nob-hill",
    "activities": [
      "cafe"
    ],
    "experiences": [
      "classic"
    ],
    "address": "724 Bush St, San Francisco, CA 94108",
    "lat": 37.7902062,
    "lng": -122.4093108
  }
]
